{
"type": "FeatureCollection",
"name": "ft_062_stops",
"features": [
{ "type": "Feature", "properties": { "Name": "Brandstrup", "Sequence": 1, "Transport": null, "Date": "1.2.1888", "Diary_star": null, "Diary_end": null, "Notes": null, "Db_start": null, "Db_end": null, "FT": 62.0, "Absolute": 70.0 }, "geometry": { "type": "Point", "coordinates": [ 9.50595, 56.364500000869491 ] } },
{ "type": "Feature", "properties": { "Name": "Skanderborg", "Sequence": 2, "Transport": "Train", "Date": "1.2.1888", "Diary_star": null, "Diary_end": null, "Notes": null, "Db_start": null, "Db_end": null, "FT": 62.0, "Absolute": 70.0 }, "geometry": { "type": "Point", "coordinates": [ 9.9302, 56.03900000087355 ] } },
{ "type": "Feature", "properties": { "Name": "Alken", "Sequence": 3, "Transport": null, "Date": null, "Diary_star": null, "Diary_end": null, "Notes": "Fra Stationen gik jeg op til Bjedstrup", "Db_start": null, "Db_end": null, "FT": 62.0, "Absolute": 70.0 }, "geometry": { "type": "Point", "coordinates": [ 9.84777, 56.053600000873409 ] } },
{ "type": "Feature", "properties": { "Name": "Bjedstrup", "Sequence": 4, "Transport": "Walked", "Date": null, "Diary_star": null, "Diary_end": null, "Notes": "Lærer A. J. Meldgaard,", "Db_start": null, "Db_end": null, "FT": 62.0, "Absolute": 70.0 }, "geometry": { "type": "Point", "coordinates": [ 9.85405, 56.066300000873227 ] } },
{ "type": "Feature", "properties": { "Name": "Dover kirke", "Sequence": 5, "Transport": "Walked", "Date": null, "Diary_star": null, "Diary_end": null, "Notes": "Smed-Rasmus,  (Bjedstrup?)", "Db_start": null, "Db_end": null, "FT": 62.0, "Absolute": 70.0 }, "geometry": { "type": "Point", "coordinates": [ 9.83505, 56.07840000087306 ] } },
{ "type": "Feature", "properties": { "Name": "Firegaarde", "Sequence": 6, "Transport": null, "Date": null, "Diary_star": null, "Diary_end": null, "Notes": "Jakob Jørgensen,(Bjedstrup?)", "Db_start": null, "Db_end": null, "FT": 62.0, "Absolute": 70.0 }, "geometry": { "type": "Point", "coordinates": [ 9.80335, 56.084800000872967 ] } },
{ "type": "Feature", "properties": { "Name": "Bjedstrup", "Sequence": 7, "Transport": null, "Date": null, "Diary_star": null, "Diary_end": null, "Notes": "Lærer Meldgaards gjæstfrie Hjem", "Db_start": null, "Db_end": null, "FT": 62.0, "Absolute": 70.0 }, "geometry": { "type": "Point", "coordinates": [ 9.85405, 56.066300000873227 ] } },
{ "type": "Feature", "properties": { "Name": "Alken", "Sequence": 8, "Transport": null, "Date": null, "Diary_star": null, "Diary_end": null, "Notes": null, "Db_start": null, "Db_end": null, "FT": 62.0, "Absolute": 70.0 }, "geometry": { "type": "Point", "coordinates": [ 9.84777, 56.053600000873409 ] } },
{ "type": "Feature", "properties": { "Name": "Fuldbro mølle", "Sequence": 9, "Transport": null, "Date": null, "Diary_star": null, "Diary_end": null, "Notes": null, "Db_start": null, "Db_end": null, "FT": 62.0, "Absolute": 70.0 }, "geometry": { "type": "Point", "coordinates": [ 9.8344, 56.024500000873729 ] } },
{ "type": "Feature", "properties": { "Name": "Taaning", "Sequence": 10, "Transport": null, "Date": "7.2.1888", "Diary_star": null, "Diary_end": null, "Notes": "R. P. Randlev og Lærer Hovgaard", "Db_start": null, "Db_end": null, "FT": 62.0, "Absolute": 70.0 }, "geometry": { "type": "Point", "coordinates": [ 9.84694, 56.013200000873852 ] } },
{ "type": "Feature", "properties": { "Name": "Fuldbro mølle", "Sequence": 11, "Transport": null, "Date": null, "Diary_star": null, "Diary_end": null, "Notes": "Saadan tilbragte jeg to Aftener der i Møllen", "Db_start": null, "Db_end": null, "FT": 62.0, "Absolute": 70.0 }, "geometry": { "type": "Point", "coordinates": [ 9.8344, 56.024500000873729 ] } },
{ "type": "Feature", "properties": { "Name": "Lille Taaning", "Sequence": 13, "Transport": "Walked", "Date": null, "Diary_star": null, "Diary_end": null, "Notes": "en Gaard, mellem Lille-\nTaaning og Taaning By", "Db_start": null, "Db_end": null, "FT": 62.0, "Absolute": 70.0 }, "geometry": { "type": "Point", "coordinates": [ 9.84015, 56.013600000873879 ] } },
{ "type": "Feature", "properties": { "Name": "Fuldbro mølle", "Sequence": 14, "Transport": null, "Date": null, "Diary_star": null, "Diary_end": null, "Notes": "Peder Johansen", "Db_start": null, "Db_end": null, "FT": 62.0, "Absolute": 70.0 }, "geometry": { "type": "Point", "coordinates": [ 9.8344, 56.024500000873729 ] } },
{ "type": "Feature", "properties": { "Name": "Dørup", "Sequence": 15, "Transport": null, "Date": null, "Diary_star": null, "Diary_end": null, "Notes": "Iver Balsen Hansen", "Db_start": null, "Db_end": null, "FT": 62.0, "Absolute": 70.0 }, "geometry": { "type": "Point", "coordinates": [ 9.76004, 56.024200000873748 ] } },
{ "type": "Feature", "properties": { "Name": "Taaning", "Sequence": 16, "Transport": "Walked", "Date": null, "Diary_star": null, "Diary_end": null, "Notes": "gik jeg om Aftenen tilbage til Taaning", "Db_start": null, "Db_end": null, "FT": 62.0, "Absolute": 70.0 }, "geometry": { "type": "Point", "coordinates": [ 9.84694, 56.013200000873852 ] } },
{ "type": "Feature", "properties": { "Name": "Fuldbro mølle", "Sequence": 17, "Transport": null, "Date": null, "Diary_star": null, "Diary_end": null, "Notes": null, "Db_start": null, "Db_end": null, "FT": 62.0, "Absolute": 70.0 }, "geometry": { "type": "Point", "coordinates": [ 9.8344, 56.024500000873729 ] } },
{ "type": "Feature", "properties": { "Name": "Lille Taaning", "Sequence": 18, "Transport": null, "Date": null, "Diary_star": null, "Diary_end": null, "Notes": null, "Db_start": null, "Db_end": null, "FT": 62.0, "Absolute": 70.0 }, "geometry": { "type": "Point", "coordinates": [ 9.84015, 56.013600000873879 ] } },
{ "type": "Feature", "properties": { "Name": "Horndrup Skov", "Sequence": 20, "Transport": "Walked", "Date": null, "Diary_star": null, "Diary_end": null, "Notes": "Peder Schultz", "Db_start": null, "Db_end": null, "FT": 62.0, "Absolute": 70.0 }, "geometry": { "type": "Point", "coordinates": [ 9.86716, 56.010000000873916 ] } },
{ "type": "Feature", "properties": { "Name": "Sneftrup præstegaard", "Sequence": 21, "Transport": null, "Date": null, "Diary_star": null, "Diary_end": null, "Notes": null, "Db_start": null, "Db_end": null, "FT": 62.0, "Absolute": 70.0 }, "geometry": { "type": "Point", "coordinates": [ 9.87414, 55.985900000874224 ] } },
{ "type": "Feature", "properties": { "Name": "Tebstrup", "Sequence": 22, "Transport": "Walked", "Date": null, "Diary_star": null, "Diary_end": null, "Notes": "Jens Andersen og Steffen Sørensen, Niels Jensen", "Db_start": null, "Db_end": null, "FT": 62.0, "Absolute": 70.0 }, "geometry": { "type": "Point", "coordinates": [ 9.87761, 55.973000000874379 ] } },
{ "type": "Feature", "properties": { "Name": "Gjedved", "Sequence": 23, "Transport": "Walked", "Date": "16.2.1888", "Diary_star": null, "Diary_end": null, "Notes": "Martin Kristensen, jeg trængte ogsaa dertil, da det var en haard Vinter", "Db_start": null, "Db_end": null, "FT": 62.0, "Absolute": 70.0 }, "geometry": { "type": "Point", "coordinates": [ 9.8582, 55.946000000874676 ] } },
{ "type": "Feature", "properties": { "Name": "Tvingstrup", "Sequence": 24, "Transport": "Walked", "Date": "17.2.1888", "Diary_star": null, "Diary_end": null, "Notes": "Det var rigtignok en haard Tur at komme til Tvingstrup, for der var dyb Sne at gaa og vade i.", "Db_start": null, "Db_end": null, "FT": 62.0, "Absolute": 70.0 }, "geometry": { "type": "Point", "coordinates": [ 9.92706, 55.91190000087515 ] } },
{ "type": "Feature", "properties": { "Name": "Serridslev", "Sequence": 25, "Transport": "Walked", "Date": "17.2.1888", "Diary_star": null, "Diary_end": null, "Notes": "Johannes Jensen, OmNatten faldt der en Masse Sne, og jeg kunde da ikke vinde videre. Her maatte jeg saa blive\net Par Dage", "Db_start": null, "Db_end": null, "FT": 62.0, "Absolute": 70.0 }, "geometry": { "type": "Point", "coordinates": [ 9.89949, 55.901600000875234 ] } },
{ "type": "Feature", "properties": { "Name": "Horsens", "Sequence": 26, "Transport": null, "Date": null, "Diary_star": null, "Diary_end": null, "Notes": null, "Db_start": null, "Db_end": null, "FT": 62.0, "Absolute": 70.0 }, "geometry": { "type": "Point", "coordinates": [ 9.86198, 55.858000000875805 ] } },
{ "type": "Feature", "properties": { "Name": "Løsning station", "Sequence": 27, "Transport": null, "Date": null, "Diary_star": null, "Diary_end": null, "Notes": null, "Db_start": null, "Db_end": null, "FT": 62.0, "Absolute": 70.0 }, "geometry": { "type": "Point", "coordinates": [ 9.69706, 55.802700000876484 ] } },
{ "type": "Feature", "properties": { "Name": "Sindbjærg", "Sequence": 28, "Transport": "Walked", "Date": null, "Diary_star": null, "Diary_end": null, "Notes": null, "Db_start": null, "Db_end": null, "FT": 62.0, "Absolute": 70.0 }, "geometry": { "type": "Point", "coordinates": [ 9.55431, 55.796900000876533 ] } },
{ "type": "Feature", "properties": { "Name": "Grejs", "Sequence": 29, "Transport": null, "Date": null, "Diary_star": null, "Diary_end": null, "Notes": null, "Db_start": null, "Db_end": null, "FT": 62.0, "Absolute": 70.0 }, "geometry": { "type": "Point", "coordinates": [ 9.54602, 55.762800000876915 ] } },
{ "type": "Feature", "properties": { "Name": "Vejle", "Sequence": 30, "Transport": null, "Date": null, "Diary_star": null, "Diary_end": null, "Notes": null, "Db_start": null, "Db_end": null, "FT": 62.0, "Absolute": 70.0 }, "geometry": { "type": "Point", "coordinates": [ 9.55216, 55.71170000087757 ] } },
{ "type": "Feature", "properties": { "Name": "Kolding", "Sequence": 32, "Transport": null, "Date": null, "Diary_star": null, "Diary_end": null, "Notes": null, "Db_start": null, "Db_end": null, "FT": 62.0, "Absolute": 70.0 }, "geometry": { "type": "Point", "coordinates": [ 9.49149, 55.491900000880186 ] } },
{ "type": "Feature", "properties": { "Name": "Brandstrup", "Sequence": 33, "Transport": null, "Date": null, "Diary_star": null, "Diary_end": null, "Notes": null, "Db_start": null, "Db_end": null, "FT": 62.0, "Absolute": 70.0 }, "geometry": { "type": "Point", "coordinates": [ 9.50595, 56.364500000869491 ] } },
{ "type": "Feature", "properties": { "Name": "Taaning", "Sequence": 12, "Transport": null, "Date": null, "Diary_star": null, "Diary_end": null, "Notes": null, "Db_start": null, "Db_end": null, "FT": 62.0, "Absolute": 70.0 }, "geometry": { "type": "Point", "coordinates": [ 9.84694, 56.013200000873852 ] } },
{ "type": "Feature", "properties": { "Name": "Fuldbro mølle", "Sequence": 19, "Transport": null, "Date": null, "Diary_star": null, "Diary_end": null, "Notes": null, "Db_start": null, "Db_end": null, "FT": 62.0, "Absolute": 70.0 }, "geometry": { "type": "Point", "coordinates": [ 9.8344, 56.024500000873729 ] } },
{ "type": "Feature", "properties": { "Name": "Fredericia", "Sequence": 31, "Transport": null, "Date": null, "Diary_star": null, "Diary_end": null, "Notes": null, "Db_start": null, "Db_end": null, "FT": 62.0, "Absolute": 70.0 }, "geometry": { "type": "Point", "coordinates": [ 9.731415657000072, 55.564024279879362 ] } }
]
}
