{
"type": "FeatureCollection",
"name": "ft_074_stops",
"features": [
{ "type": "Feature", "properties": { "Name": "Hadsten Station", "Sequence": 1 }, "geometry": { "type": "Point", "coordinates": [ 10.0495, 56.326700000869963 ] } },
{ "type": "Feature", "properties": { "Name": "Hinnerup", "Sequence": 2 }, "geometry": { "type": "Point", "coordinates": [ 10.0673, 56.262000000870756 ] } },
{ "type": "Feature", "properties": { "Name": "Grundfør", "Sequence": 3 }, "geometry": { "type": "Point", "coordinates": [ 10.0993, 56.266700000870728 ] } },
{ "type": "Feature", "properties": { "Name": "Mejlby", "Sequence": 4 }, "geometry": { "type": "Point", "coordinates": [ 10.2134, 56.300700000870279 ] } },
{ "type": "Feature", "properties": { "Name": "Linaa mark", "Sequence": 5 }, "geometry": { "type": "Point", "coordinates": [ 10.2473, 56.296400000870328 ] } },
{ "type": "Feature", "properties": { "Name": "Todbjærg", "Sequence": 6 }, "geometry": { "type": "Point", "coordinates": [ 10.2066, 56.268900000870644 ] } },
{ "type": "Feature", "properties": { "Name": "Lisbjærg terp", "Sequence": 7 }, "geometry": { "type": "Point", "coordinates": [ 10.1905, 56.216000000871354 ] } },
{ "type": "Feature", "properties": { "Name": "Aarhus", "Sequence": 8 }, "geometry": { "type": "Point", "coordinates": [ 10.2072, 56.159000000872055 ] } },
{ "type": "Feature", "properties": { "Name": "Horsens", "Sequence": 9 }, "geometry": { "type": "Point", "coordinates": [ 9.86198, 55.858000000875805 ] } },
{ "type": "Feature", "properties": { "Name": "Bjærge", "Sequence": 10 }, "geometry": { "type": "Point", "coordinates": [ 9.85819, 55.784700000876654 ] } },
{ "type": "Feature", "properties": { "Name": "Vejle", "Sequence": 11 }, "geometry": { "type": "Point", "coordinates": [ 9.55216, 55.71170000087757 ] } },
{ "type": "Feature", "properties": { "Name": "Eltang", "Sequence": 12 }, "geometry": { "type": "Point", "coordinates": [ 9.53783, 55.527400000879773 ] } },
{ "type": "Feature", "properties": { "Name": "Nørre Bjært", "Sequence": 13 }, "geometry": { "type": "Point", "coordinates": [ 9.52312, 55.512600000879971 ] } },
{ "type": "Feature", "properties": { "Name": "Kolding", "Sequence": 14 }, "geometry": { "type": "Point", "coordinates": [ 9.49149, 55.491900000880186 ] } },
{ "type": "Feature", "properties": { "Name": "Harte", "Sequence": 15 }, "geometry": { "type": "Point", "coordinates": [ 9.41754, 55.508800000880001 ] } },
{ "type": "Feature", "properties": { "Name": "Sandbjærggård", "Sequence": 16 }, "geometry": { "type": "Point", "coordinates": [ 9.41884, 55.510700000879972 ] } },
{ "type": "Feature", "properties": { "Name": "Brandrup", "Sequence": 17 }, "geometry": { "type": "Point", "coordinates": [ 9.46682, 55.521300000879833 ] } },
{ "type": "Feature", "properties": { "Name": "Almind", "Sequence": 18 }, "geometry": { "type": "Point", "coordinates": [ 9.48861, 55.567000000879304 ] } },
{ "type": "Feature", "properties": { "Name": "Viv", "Sequence": 19 }, "geometry": { "type": "Point", "coordinates": [ 9.48241, 55.58120000087915 ] } },
{ "type": "Feature", "properties": { "Name": "Dons", "Sequence": 20 }, "geometry": { "type": "Point", "coordinates": [ 9.44435, 55.55590000087944 ] } },
{ "type": "Feature", "properties": { "Name": "Aagaard", "Sequence": 21 }, "geometry": { "type": "Point", "coordinates": [ 9.41408, 55.589400000879046 ] } },
{ "type": "Feature", "properties": { "Name": "Vester Nebel", "Sequence": 22 }, "geometry": { "type": "Point", "coordinates": [ 9.40491, 55.565000000879323 ] } },
{ "type": "Feature", "properties": { "Name": "Egtved", "Sequence": 23 }, "geometry": { "type": "Point", "coordinates": [ 9.30973, 55.615100000878705 ] } },
{ "type": "Feature", "properties": { "Name": "Jordrup", "Sequence": 24 }, "geometry": { "type": "Point", "coordinates": [ 9.30966, 55.557800000879396 ] } },
{ "type": "Feature", "properties": { "Name": "Veerst", "Sequence": 25 }, "geometry": { "type": "Point", "coordinates": [ 9.24419, 55.558400000879423 ] } },
{ "type": "Feature", "properties": { "Name": "Jordrup", "Sequence": 26 }, "geometry": { "type": "Point", "coordinates": [ 9.30966, 55.557800000879396 ] } },
{ "type": "Feature", "properties": { "Name": "Egholt", "Sequence": 27 }, "geometry": { "type": "Point", "coordinates": [ 9.28247, 55.530600000879701 ] } },
{ "type": "Feature", "properties": { "Name": "Lejrskov", "Sequence": 28 }, "geometry": { "type": "Point", "coordinates": [ 9.3217, 55.511800000879958 ] } },
{ "type": "Feature", "properties": { "Name": "Øster Gjesten", "Sequence": 29 }, "geometry": { "type": "Point", "coordinates": [ 9.21429, 55.52820000087975 ] } },
{ "type": "Feature", "properties": { "Name": "Egtved", "Sequence": 30 }, "geometry": { "type": "Point", "coordinates": [ 9.30973, 55.615100000878705 ] } },
{ "type": "Feature", "properties": { "Name": "Ødsted", "Sequence": 31 }, "geometry": { "type": "Point", "coordinates": [ 9.40066, 55.657600000878212 ] } },
{ "type": "Feature", "properties": { "Name": "Ammitsbøl", "Sequence": 32 }, "geometry": { "type": "Point", "coordinates": [ 9.41426, 55.646200000878373 ] } },
{ "type": "Feature", "properties": { "Name": "Jerlev", "Sequence": 33 }, "geometry": { "type": "Point", "coordinates": [ 9.43858, 55.672800000878034 ] } },
{ "type": "Feature", "properties": { "Name": "Ødsted", "Sequence": 34 }, "geometry": { "type": "Point", "coordinates": [ 9.40066, 55.657600000878212 ] } },
{ "type": "Feature", "properties": { "Name": "Bræsten", "Sequence": 35 }, "geometry": { "type": "Point", "coordinates": [ 9.38447, 55.696100000877756 ] } },
{ "type": "Feature", "properties": { "Name": "Balle", "Sequence": 36 }, "geometry": { "type": "Point", "coordinates": [ 9.37577, 55.710600000877577 ] } },
{ "type": "Feature", "properties": { "Name": "Ringive", "Sequence": 37 }, "geometry": { "type": "Point", "coordinates": [ 9.17733, 55.80010000087649 ] } },
{ "type": "Feature", "properties": { "Name": "Kollemorten", "Sequence": 38 }, "geometry": { "type": "Point", "coordinates": [ 9.3654, 55.854200000875842 ] } },
{ "type": "Feature", "properties": { "Name": "Vonge", "Sequence": 39 }, "geometry": { "type": "Point", "coordinates": [ 9.41943, 55.860300000875753 ] } },
{ "type": "Feature", "properties": { "Name": "Tørring", "Sequence": 40 }, "geometry": { "type": "Point", "coordinates": [ 9.48543, 55.855300000875829 ] } },
{ "type": "Feature", "properties": { "Name": "Aale", "Sequence": 41 }, "geometry": { "type": "Point", "coordinates": [ 9.56231, 55.886300000875451 ] } },
{ "type": "Feature", "properties": { "Name": "Rask Mølle", "Sequence": 42 }, "geometry": { "type": "Point", "coordinates": [ 9.61122, 55.871000000875604 ] } },
{ "type": "Feature", "properties": { "Name": "Boring", "Sequence": 43 }, "geometry": { "type": "Point", "coordinates": [ 9.59906, 55.869400000875629 ] } },
{ "type": "Feature", "properties": { "Name": "Hornum", "Sequence": 44 }, "geometry": { "type": "Point", "coordinates": [ 9.63461, 55.882700000875481 ] } },
{ "type": "Feature", "properties": { "Name": "Horsens", "Sequence": 45 }, "geometry": { "type": "Point", "coordinates": [ 9.86198, 55.858000000875805 ] } },
{ "type": "Feature", "properties": { "Name": "Hadsten Station", "Sequence": 46 }, "geometry": { "type": "Point", "coordinates": [ 10.0495, 56.326700000869963 ] } }
]
}
